{"id":67,"routeId":72,"regionId":1,"routeNo":"52","routeName":"Bến Xe Buýt Sài Gòn - Đại học Quốc tế","totalScore":260,"ratingCount":113,"rating1Count":64,"rating2Count":6,"rating3Count":10,"rating4Count":11,"rating5Count":22,"lastUpdated":{},"timeTableIn":"22500,23700,24900,26400,27000,27600,28200,28800,29400,30300,31800,33300,34200,35400,36300,37200,38100,39600,41100,41700,42300,43500,47100,47700,48300,49200,50100,51000,52200,53700,55200,56700,57300,57900,58500,59100,60000,60900,62400,64200,65100,66000","timeTableOut":"18600,19800,21000,22200,22800,23400,24000,24600,25200,26100,27600,29100,30300,31500,32100,33000,33900,34800,35400,36000,37500,39000,40500,41100,41700,42300,43800,45300,45900,46500,47400,51300,51900,52800,53700,54600,55500,56700,58200,59400,60600,61800","type":"Phổ thông - Có trợ giá","distance":22980,"tickets":null,"headway":"10 - 65","operationTime":"06:30 - 16:10","outBoundDescription":"Bến CV 23/9 – Phạm Ngũ Lão - Yersin – Trần Hưng Đạo – Hàm Nghi - Pasteur - Lê Duẩn - Phạm Ngọc Thạch - (Hồ Con Rùa) - Phạm Ngọc Thạch - Nguyễn Thị Minh Khai - Xô Viết Nghệ Tĩnh - Điện Biên Phủ - Xa lộ Hà Nội - (Cầu vượt Trạm 2) - Quốc lộ 1A - Đường vào trường ĐH Thể duc thể thao - (rẽ trái) - (Ngã ba đường vào trường ĐH Khoa học Tự Nhiên - (rẽ trái) - đường nhánh N2 - Bến A Đại học Quốc Gia","inBoundDescription":"Bến A Đại học Quốc Gia - Đường nhán N2 - Trường ĐH Quốc tế - (rẽ phải) - (rẽ phải tại ngã ba đường 621) - ngã ba đường vào trường ĐH Khoa học Xã hội và Nhân văn - Đường vào trường ĐH Thể dục Thể thao - Quốc lộ 1A - (quay đầu) - Quốc lộ 1A - Xa lộ Hà Nội - Điện Biên Phủ - Xô Viết Nghệ Tĩnh - Nguyễn Thị Minh Khai - Phùng Khắc Khoan - Trần Cao Vân - (Hồ Con Rùa) - Phạm Ngọc Thạch - Lê Duẩn - Nam Kỳ Khởi Nghĩa – Hàm Nghi – Lê Lai - Bến CV 23/9.","normalTicket":6000,"studentTicket":"3,000 VNĐ","monthlyTicket":"135,000 VNĐ","orgs":"Công ty Cổ phần Xe khách Sài Gòn, ĐT: (028)39505505","timeOfTrip":"55 - 70","totalTrip":"84 [TPD]","routeNoI18n":null,"routeNameI18n":null,"routeType":1,"privateRoute":false,"disabled":false,"isDeleted":false,"customRoute":null,"temporaryClosed":false,"underConstruction":false,"forwardRouteId":0,"backwardRouteId":0,"forwardBiasDistance":null,"backwardBiasDistance":null,"createdAt":{},"updatedAt":{},"stations":[{"stationId":3160,"stationOrder":0,"stationDirection":0,"routeId":72,"stationName":"Đại học Quốc gia","pathPoints":"","stationAddress":"Đại học Quốc gia, đường Đường nội bộ Đại học Quốc gia, Quận Thủ Đức","lat":10.8773040771484,"lng":106.80158996582,"stationType":1},{"stationId":398,"stationOrder":1,"stationDirection":0,"routeId":72,"stationName":"Khu Công nghệ cao Q9","pathPoints":"106.80158997,10.87730408 106.80178833,10.87689686 106.80129242,10.87580109 106.80174255,10.87389374 106.80190277,10.87390518 106.80149841,10.87579060 106.80197144,10.87654972 106.80352783,10.87643337 106.80428314,10.87615967 106.80484772,10.87580109 106.80525208,10.87531662 106.80515289,10.87469482 106.80490875,10.87417889 106.80448914,10.87377834 106.80387878,10.87360954 106.80323792,10.87354660 106.80190277,10.87363625 106.80166626,10.87353039 106.80126953,10.87358379 106.80010223,10.87286186 106.79952240,10.87248230 106.79898834,10.87220860 106.79822540,10.87203979 106.79788208,10.87151337 106.79747009,10.87107086 106.79704285,10.87043858 106.79640198,10.87045956 106.79575348,10.87054348 106.79530334,10.87039566 106.79534912,10.86934280 106.79532623,10.86864758 106.79481506,10.86720371 106.79415894,10.86534882 106.79409027,10.86513805 106.79345703,10.86566544 106.79270172,10.86617088 106.79225922,10.86640263 106.79138184,10.86682415 106.79037476,10.86713505 106.78934479,10.86728764 106.78827667,10.86732960 106.78826141,10.86708260 106.78944397,10.86704063 106.79053497,10.86683464 106.79151917,10.86652946 106.79206848,10.86625576 106.79251862,10.86593914 106.79288483,10.86571312 106.79315186,10.86538124 106.79343414,10.86481667 106.79366302,10.86422157 106.79353333,10.86272526 106.79296875,10.86139774 106.79244232,10.86088181 106.79172516,10.86054516 106.79172516,10.86054516 106.79172516,10.86054516 106.79172516,10.86054516 106.79172516,10.86054516 106.79172516,10.86054516 106.79172516,10.86054516 106.79172516,10.86054516","stationAddress":"Đối diện Khu công nghệ cao, đường Xa Lộ Hà Nội, Quận Thủ Đức","lat":10.860218,"lng":106.791138,"stationType":1},{"stationId":4392,"stationOrder":2,"stationDirection":0,"routeId":72,"stationName":"Xa Lộ Hà Nội","pathPoints":"106.79172516,10.86054516 106.79172516,10.86054516 106.79175568,10.86049175 106.78868103,10.85864830 106.78863525,10.85871601 106.78863525,10.85871601","stationAddress":"Đối diện Khu Công Nghệ Cao Q.9, đường Xa Lộ Hà Nội, Quận Thủ Đức","lat":10.858716,"lng":106.788633,"stationType":1},{"stationId":401,"stationOrder":3,"stationDirection":0,"routeId":72,"stationName":"Công ty Cocacola","pathPoints":"106.78863525,10.85871601 106.78863525,10.85871601 106.78869629,10.85864830 106.78496552,10.85648346 106.78496552,10.85648346","stationAddress":"Công ty Cocacola, đường Xa Lộ Hà Nội, Quận Thủ Đức","lat":10.856483,"lng":106.784964,"stationType":1},{"stationId":1113,"stationOrder":4,"stationDirection":0,"routeId":72,"stationName":"Ngã tư Thủ Đức","pathPoints":"106.78496552,10.85648346 106.77813721,10.85246277 106.77543640,10.85069275 106.77298737,10.84827995","stationAddress":"Đối diện Coopmart, đường Xa Lộ Hà Nội, Quận Thủ Đức","lat":10.84828,"lng":106.77299,"stationType":1},{"stationId":1111,"stationOrder":5,"stationDirection":0,"routeId":72,"stationName":"Betong Hải Âu","pathPoints":"106.77298737,10.84827995 106.77298737,10.84827995 106.77302551,10.84818459 106.77072906,10.84426975 106.77062988,10.84429741 106.77062988,10.84429741","stationAddress":"Đối diện Betong Hải Âu, đường Xa Lộ Hà Nội, Quận Thủ Đức","lat":10.844297,"lng":106.77063,"stationType":1},{"stationId":1112,"stationOrder":6,"stationDirection":0,"routeId":72,"stationName":"UBND Quận 9","pathPoints":"106.77062988,10.84429741 106.77062988,10.84429741 106.77067566,10.84419155 106.76870728,10.84070301 106.76860809,10.84074497 106.76860809,10.84074497","stationAddress":"126, đường Xa Lộ Hà Nội, Quận Thủ Đức","lat":10.840745,"lng":106.768607,"stationType":1},{"stationId":410,"stationOrder":7,"stationDirection":0,"routeId":72,"stationName":"Ngã 4 Bình Thái","pathPoints":"106.76860809,10.84074497 106.76860809,10.84074497 106.76867676,10.84067726 106.76538086,10.83490753 106.76524353,10.83494473 106.76524353,10.83494473","stationAddress":"Đối diện 592C, đường Xa Lộ Hà Nội, Quận Thủ Đức","lat":10.834945,"lng":106.765244,"stationType":1},{"stationId":413,"stationOrder":8,"stationDirection":0,"routeId":72,"stationName":"Công ty truyền tải điện 4","pathPoints":"106.76524353,10.83494473 106.76524353,10.83494473 106.76530457,10.83489227 106.76326752,10.83118820 106.76319122,10.83121395 106.76319122,10.83121395","stationAddress":"Công ty truyền tải điện 4, đường Xa Lộ Hà Nội, Quận Thủ Đức","lat":10.831214,"lng":106.763195,"stationType":1},{"stationId":412,"stationOrder":9,"stationDirection":0,"routeId":72,"stationName":"Ngã 4 Tây Hòa (RMK)","pathPoints":"106.76319122,10.83121395 106.76319122,10.83121395 106.76163483,10.82828999 106.75999451,10.82536602 106.75999451,10.82536602","stationAddress":"Nhà máy thép Thủ Đức, đường Xa Lộ Hà Nội, Quận Thủ Đức","lat":10.825366,"lng":106.759998,"stationType":1},{"stationId":414,"stationOrder":10,"stationDirection":0,"routeId":72,"stationName":"Xi măng Hà Tiên","pathPoints":"106.75999451,10.82536602 106.75891113,10.82329464 106.75814056,10.82057571","stationAddress":"Xi măng Hà Tiên 1, đường Xa Lộ Hà Nội, Quận Thủ Đức","lat":10.820576,"lng":106.758142,"stationType":1},{"stationId":415,"stationOrder":11,"stationDirection":0,"routeId":72,"stationName":"Cát Lái","pathPoints":"106.75814056,10.82057571 106.75827026,10.82050228 106.75801849,10.81883240 106.75790405,10.81849480 106.75765991,10.81719398 106.75750732,10.81649971 106.75664520,10.81187153 106.75634766,10.81039143 106.75623322,10.80998039 106.75605011,10.80971622 106.75601959,10.80946922 106.75546265,10.80813599 106.75495148,10.80731869 106.75418854,10.80628586 106.75329590,10.80536938 106.75157166,10.80418873 106.75130463,10.80400467 106.75016785,10.80346680 106.74919891,10.80312443 106.74796295,10.80286980 106.74794769,10.80292511","stationAddress":"Đối diện Esstella, đường Xa Lộ Hà Nội, Quận 2","lat":10.802925,"lng":106.747948,"stationType":1},{"stationId":416,"stationOrder":12,"stationDirection":0,"routeId":72,"stationName":"Metro Quận 2","pathPoints":"106.74794769,10.80292511 106.74340057,10.80213356","stationAddress":"655, đường Xa Lộ Hà Nội, Quận 2","lat":10.802134,"lng":106.7434,"stationType":1},{"stationId":417,"stationOrder":13,"stationDirection":0,"routeId":72,"stationName":"Thảo Điền","pathPoints":"106.74340057,10.80213356 106.74340057,10.80213356 106.74340820,10.80209732 106.74114990,10.80168056 106.73878479,10.80124855 106.73876190,10.80130863 106.73876190,10.80130863","stationAddress":"Ngã ba Thảo Điền, đường Xa Lộ Hà Nội, Quận 2","lat":10.801309,"lng":106.738762,"stationType":1},{"stationId":418,"stationOrder":14,"stationDirection":0,"routeId":72,"stationName":"Cầu Đen","pathPoints":"106.73876190,10.80130863 106.73876190,10.80130863 106.73876190,10.80124855 106.73437500,10.80042171 106.73435974,10.80045128 106.73435974,10.80045128","stationAddress":"Đối diện Cầu Đen, đường Xa Lộ Hà Nội, Quận 2","lat":10.800451,"lng":106.73436,"stationType":1},{"stationId":419,"stationOrder":15,"stationDirection":0,"routeId":72,"stationName":"Cầu Sài Gòn","pathPoints":"106.73435974,10.80045128 106.72284698,10.79813957 106.72219849,10.79803467 106.72155762,10.79800320 106.72103119,10.79808712 106.72053528,10.79827690 106.72010040,10.79850864 106.71964264,10.79881954","stationAddress":"24(597), đường Điện Biên Phủ, Quận Bình Thạnh","lat":10.798893,"lng":106.719571,"stationType":1},{"stationId":420,"stationOrder":16,"stationDirection":0,"routeId":72,"stationName":"Khu Du lịch Văn Thánh","pathPoints":"106.71957397,10.79889297 106.71948242,10.79883575 106.71929169,10.79907227 106.71717072,10.80021095 106.71722412,10.80027390","stationAddress":"152/72c(559), đường Điện Biên Phủ, Quận Bình Thạnh","lat":10.800274,"lng":106.717227,"stationType":1},{"stationId":421,"stationOrder":17,"stationDirection":0,"routeId":72,"stationName":"Đại học Hutech","pathPoints":"106.71722412,10.80027390 106.71722412,10.80027390 106.71717834,10.80023670 106.71686554,10.80035305 106.71652985,10.80040073 106.71595764,10.80069542 106.71569061,10.80090141 106.71483612,10.80116940 106.71485901,10.80122757 106.71485901,10.80122757 106.71485901,10.80122757","stationAddress":"483, đường Điện Biên Phủ, Quận Bình Thạnh","lat":10.801228,"lng":106.714856,"stationType":1},{"stationId":423,"stationOrder":18,"stationDirection":0,"routeId":72,"stationName":"Cây xăng dầu","pathPoints":"106.71485901,10.80122757 106.71485901,10.80122757 106.71485901,10.80122757 106.71482086,10.80117989 106.71377563,10.80146980 106.71327972,10.80159092 106.71282196,10.80163383 106.71283722,10.80169678 106.71283722,10.80169678","stationAddress":"419, đường Điện Biên Phủ, Quận Bình Thạnh","lat":10.801697,"lng":106.712834,"stationType":1},{"stationId":368,"stationOrder":19,"stationDirection":0,"routeId":72,"stationName":"Trường trung học Gia Định","pathPoints":"106.71283722,10.80169678 106.71281433,10.80158615 106.71160889,10.80160141 106.71135712,10.80171776 106.71115875,10.80167580 106.71106720,10.80150700 106.71109772,10.80131721 106.71122742,10.80119610 106.71107483,10.79983711 106.71103668,10.79981041","stationAddress":"221, đường Xô Viết Nghệ Tĩnh, Quận Bình Thạnh","lat":10.79981,"lng":106.711037,"stationType":1},{"stationId":367,"stationOrder":20,"stationDirection":0,"routeId":72,"stationName":"Trường Tiểu học Hồng Hà","pathPoints":"106.71103668,10.79981041 106.71109772,10.79980469 106.71099854,10.79847717 106.71068573,10.79732323 106.71059418,10.79732800","stationAddress":"153, đường Xô Viết Nghệ Tĩnh, Quận Bình Thạnh","lat":10.797328,"lng":106.710591,"stationType":1},{"stationId":369,"stationOrder":21,"stationDirection":0,"routeId":72,"stationName":"Ngã ba Nguyễn Cửu Vân","pathPoints":"106.71059418,10.79732800 106.71067810,10.79729652 106.71002197,10.79563141 106.70951080,10.79506779 106.70944214,10.79510975","stationAddress":"151, đường Xô Viết Nghệ Tĩnh, Quận Bình Thạnh","lat":10.79511,"lng":106.709443,"stationType":1},{"stationId":373,"stationOrder":22,"stationDirection":0,"routeId":72,"stationName":"Nhà thờ Thị Nghè","pathPoints":"106.70944214,10.79510975 106.70949554,10.79505157 106.70811462,10.79364014 106.70805359,10.79366112","stationAddress":"79, đường Xô Viết Nghệ Tĩnh, Quận Bình Thạnh","lat":10.793661,"lng":106.708054,"stationType":1},{"stationId":370,"stationOrder":23,"stationDirection":0,"routeId":72,"stationName":"Thảo Cầm Viên","pathPoints":"106.70805359,10.79366112 106.70815277,10.79360771 106.70535278,10.79061985 106.70526123,10.79069424 106.70526123,10.79069424","stationAddress":"2A, đường Nguyễn Thị Minh Khai, Quận 1","lat":10.790694,"lng":106.705259,"stationType":1},{"stationId":371,"stationOrder":24,"stationDirection":0,"routeId":72,"stationName":"nhà thờ Mạc Ti Nho","pathPoints":"106.70539093,10.79061031 106.70334625,10.78841972 106.70136261,10.78633976","stationAddress":"16A, đường Nguyễn Thị Minh Khai, Quận 1","lat":10.786397,"lng":106.701294,"stationType":1},{"stationId":372,"stationOrder":25,"stationDirection":0,"routeId":72,"stationName":"Phùng Khắc Khoan","pathPoints":"106.70129395,10.78639698 106.69964600,10.78463936 106.69886017,10.78384399 106.69858551,10.78404808","stationAddress":"2 - 4, đường Phùng Khắc Khoan, Quận 1","lat":10.784048,"lng":106.698586,"stationType":1},{"stationId":378,"stationOrder":26,"stationDirection":0,"routeId":72,"stationName":"Hồ Con Rùa","pathPoints":"106.69858551,10.78404808 106.69780731,10.78478146 106.69641113,10.78331375","stationAddress":"24 - 26, đường Trần Cao Vân, Quận 3","lat":10.783314,"lng":106.696411,"stationType":1},{"stationId":2567,"stationOrder":27,"stationDirection":0,"routeId":72,"stationName":"Nhà Văn Hóa Thanh Niên","pathPoints":"106.69647980,10.78324986 106.69615936,10.78291988 106.69612122,10.78295040 106.69602203,10.78299046 106.69592285,10.78300953 106.69580841,10.78299999 106.69570160,10.78295040 106.69560242,10.78287029 106.69553375,10.78277016 106.69550323,10.78262997 106.69553375,10.78246021 106.69561005,10.78232956 106.69577789,10.78225040 106.69590759,10.78221989 106.69603729,10.78223038 106.69618225,10.78230000 106.69622803,10.78232956 106.69685364,10.78174973","stationAddress":"3-5, đường Phạm Ngọc Thạch, Quận 3","lat":10.781741,"lng":106.696794,"stationType":1},{"stationId":200,"stationOrder":28,"stationDirection":0,"routeId":72,"stationName":"Tòa án Nhân dân Thành Phố","pathPoints":"106.69679260,10.78174114 106.69683838,10.78177738 106.69842529,10.78034973 106.69641113,10.77825260 106.69869232,10.77609158 106.69864655,10.77605247","stationAddress":"131, đường Nam Kỳ Khởi Nghĩa, Quận 1","lat":10.776052,"lng":106.698647,"stationType":1},{"stationId":199,"stationOrder":29,"stationDirection":0,"routeId":72,"stationName":"Chùa Ông","pathPoints":"106.69864655,10.77605247 106.69875336,10.77610207 106.69905090,10.77583885 106.69981384,10.77404690 106.69972229,10.77395725","stationAddress":"Đối diện 96A, đường Nam Kỳ Khởi Nghĩa, Quận 1","lat":10.773957,"lng":106.699722,"stationType":1},{"stationId":201,"stationOrder":30,"stationDirection":0,"routeId":72,"stationName":"Trường CĐKT Cao Thắng","pathPoints":"106.69972229,10.77395725 106.69972229,10.77395725 106.69984436,10.77394199 106.70088959,10.77151203 106.70085144,10.77141571 106.70085144,10.77141571","stationAddress":"Đối diện 86, đường Nam Kỳ Khởi Nghĩa, Quận 1","lat":10.771416,"lng":106.700851,"stationType":1},{"stationId":80,"stationOrder":31,"stationDirection":0,"routeId":72,"stationName":"Trạm Trung chuyển trên đường Hàm Nghi","pathPoints":"106.70088959,10.77143860 106.70104218,10.77111721 106.70008087,10.77118587","stationAddress":"Hàm Nghi 10 (134), đường Hàm Nghi, Quận 1","lat":10.771222,"lng":106.700082,"stationType":1},{"stationId":7273,"stationOrder":32,"stationDirection":0,"routeId":72,"stationName":"Khách sạn New World","pathPoints":"106.70008087,10.77122211 106.69882965,10.77128601 106.69879913,10.77164364 106.69863892,10.77192879 106.69828796,10.77189732 106.69802856,10.77170753 106.69594574,10.77096367 106.69594574,10.77096367 106.69594574,10.77096367","stationAddress":"Đối diện cây xanh số 105, đường Lê Lai, Quận 1","lat":10.770964,"lng":106.695946,"stationType":1},{"stationId":7274,"stationOrder":33,"stationDirection":0,"routeId":72,"stationName":"Nguyễn Thị Nghĩa","pathPoints":"106.69594574,10.77096367 106.69594574,10.77096367 106.69595337,10.77092171 106.69351959,10.76990986 106.69349670,10.76995182 106.69349670,10.76995182","stationAddress":"94-96, đường Lê Lai, Quận 1","lat":10.769952,"lng":106.693495,"stationType":1},{"stationId":7275,"stationOrder":34,"stationDirection":0,"routeId":72,"stationName":"Tôn Thất Tùng","pathPoints":"106.69349670,10.76995182 106.69351196,10.76987362 106.69049835,10.76869774 106.69046783,10.76876068","stationAddress":"202-204, đường Lê Lai, Quận 1","lat":10.768761,"lng":106.690469,"stationType":1},{"stationId":35,"stationOrder":35,"stationDirection":0,"routeId":72,"stationName":"Bến xe buýt Sài Gòn","pathPoints":"106.69046783,10.76876068 106.69050598,10.76870823 106.68921661,10.76814461 106.68936157,10.76767635","stationAddress":"BẾN XE BUÝT SÀI GÒN, đường Lê Lai, Quận 1","lat":10.767676,"lng":106.689362,"stationType":1},{"stationId":35,"stationOrder":0,"stationDirection":1,"routeId":72,"stationName":"Bến xe buýt Sài Gòn","pathPoints":"","stationAddress":"BẾN XE BUÝT SÀI GÒN, đường Lê Lai, Quận 1","lat":10.767676,"lng":106.689362,"stationType":1},{"stationId":7276,"stationOrder":1,"stationDirection":1,"routeId":72,"stationName":"Tôn Thất Tùng","pathPoints":"106.68936157,10.76767635 106.68936157,10.76767635 106.68955994,10.76720715 106.69089508,10.76772308 106.69094086,10.76766968 106.69094086,10.76766968 106.69094086,10.76766968 106.69094075594128,10.767669854267654","stationAddress":"277-279-275Y, đường Phạm Ngũ Lão, Quận 1","lat":10.76767,"lng":106.690941,"stationType":1},{"stationId":7277,"stationOrder":2,"stationDirection":1,"routeId":72,"stationName":"Nguyễn Thị Nghĩa","pathPoints":"106.69094075594128,10.767669854267654 106.69090271,10.76773357 106.6936264,10.76885128 106.69370066512403,10.768790018572663","stationAddress":"187, đường Phạm Ngũ Lão, Quận 1","lat":10.768788,"lng":106.693699,"stationType":1},{"stationId":7278,"stationOrder":3,"stationDirection":1,"routeId":72,"stationName":"Trường Emst Thalmann","pathPoints":"106.69370066512403,10.768790018572663 106.6937027,10.76878834 106.6937027,10.76878834 106.69366455,10.76887226 106.69554138,10.76958847 106.69558695264277,10.769503974457889","stationAddress":"Trường Emst Thalmann, đường Phạm Ngũ Lão, Quận 1","lat":10.769504,"lng":106.695587,"stationType":1},{"stationId":30,"stationOrder":4,"stationDirection":1,"routeId":72,"stationName":"Trạm Trung chuyển trên đường Hàm Nghi","pathPoints":"106.69558695264277,10.769503974457889 106.69558716,10.76950359 106.69558716,10.76950359 106.69558716,10.76950359 106.69554138,10.76956272 106.69613647,10.76978397 106.69644165,10.76908779 106.69740295,10.77022076 106.6990509,10.77082729 106.6991806,10.77093792 106.69956207,10.77094269 106.69956207,10.77094269 106.70035553,10.77100086 106.70035597780817,10.771000808189966","stationAddress":"Hàm nghi 1, đường Hàm Nghi, Quận 1","lat":10.771001,"lng":106.700356,"stationType":1},{"stationId":1256,"stationOrder":5,"stationDirection":1,"routeId":72,"stationName":"Chợ Cũ","pathPoints":"106.70035597780817,10.771000808189966 106.70199585,10.77081108 106.70199585,10.77081108 106.70199799822294,10.770810966396049","stationAddress":"89A, đường Hàm Nghi, Quận 1","lat":10.770811,"lng":106.701998,"stationType":1},{"stationId":4271,"stationOrder":6,"stationDirection":1,"routeId":72,"stationName":"Đền Thờ Ấn Giáo, Pasteur","pathPoints":"106.70199799822294,10.770810966396049 106.70259094,10.77077961 106.70139313,10.77359486 106.70139313,10.77359486 106.70139261285209,10.773596094530378","stationAddress":"Đền Thờ Ấn Giáo, đường Pasteur, Quận 1","lat":10.773595,"lng":106.70139,"stationType":1},{"stationId":2724,"stationOrder":7,"stationDirection":1,"routeId":72,"stationName":"Lê Thánh Tôn","pathPoints":"106.70139261285209,10.773596094530378 106.70076770212984,10.775087875221436","stationAddress":"144, đường Pasteur, Quận 1","lat":10.775088,"lng":106.700768,"stationType":1},{"stationId":4272,"stationOrder":8,"stationDirection":1,"routeId":72,"stationName":"Lý Tự Trọng","pathPoints":"106.70076770212984,10.775087875221436 106.70076752,10.77508831 106.70076752,10.77508831 106.70076752,10.77508831 106.70070648,10.77512741 106.69995117,10.7768507 106.69965574082244,10.777087428589487","stationAddress":"158, đường Pasteur, Quận 1","lat":10.777089,"lng":106.699657,"stationType":1},{"stationId":4273,"stationOrder":9,"stationDirection":1,"routeId":72,"stationName":"Lê Duẫn","pathPoints":"106.69965574082244,10.777087428589487 106.69965363,10.77708912 106.69965363,10.77708912 106.69965363,10.77708912 106.69833374,10.77830791 106.69833374,10.77830791 106.69833374,10.77830791 106.69833374,10.77830791 106.69833328682647,10.778308318327896","stationAddress":"178, đường Pasteur, Quận 1","lat":10.778308,"lng":106.698333,"stationType":1},{"stationId":2704,"stationOrder":10,"stationDirection":1,"routeId":72,"stationName":"Nhà Văn Hóa Thanh Niên","pathPoints":"106.69833328682647,10.778308318327896 106.69741821,10.77913284 106.69845581,10.78022861 106.69853973,10.78004456 106.69871521,10.7800808 106.69876862,10.7802124 106.69863129,10.78034973 106.69848633,10.78032303 106.69685364,10.78180981 106.69687653,10.78186226 106.69687653,10.78186226 106.69687653,10.78186226 106.69687422622758,10.781861396462764","stationAddress":"6B-8, đường Phạm Ngọc Thạch, Quận 3","lat":10.781862,"lng":106.696874,"stationType":1},{"stationId":2567,"stationOrder":11,"stationDirection":1,"routeId":72,"stationName":"Nhà Văn Hóa Thanh Niên","pathPoints":"106.69687422622758,10.781861396462764 106.69686127,10.78185654 106.69624329,10.78234673 106.69637299,10.78268909 106.69631958,10.78292179 106.69621277,10.78303242 106.69600677,10.78311062 106.69573975,10.78308964 106.69559479,10.78294754 106.69552612,10.78279495 106.69552612,10.7825737 106.69564056,10.78238392 106.69586182,10.78228378 106.69618225,10.78228855 106.69677734,10.78177261 106.69679733147228,10.781770340028228","stationAddress":"3-5, đường Phạm Ngọc Thạch, Quận 3","lat":10.781741,"lng":106.696794,"stationType":1},{"stationId":294,"stationOrder":12,"stationDirection":1,"routeId":72,"stationName":"Mạc Đỉnh Chi","pathPoints":"106.69679733147228,10.781770340028228 106.69686127,10.78176308 106.69685364,10.78174973 106.69692993,10.78166962 106.69803619,10.78285027 106.69882202,10.78369999 106.69915771,10.7839489 106.69950104,10.78419113 106.69950104,10.78419113 106.69950184768068,10.78419203191833","stationAddress":"21, đường Nguyễn Thị Minh Khai, Quận 1","lat":10.784191,"lng":106.699503,"stationType":1},{"stationId":296,"stationOrder":13,"stationDirection":1,"routeId":72,"stationName":"Đinh Tiên Hoàng","pathPoints":"106.69950184768068,10.78419203191833 106.70041656,10.78521347 106.70137003734962,10.786145961809838","stationAddress":"15C-15D, đường Nguyễn Thị Minh Khai, Quận 1","lat":10.786146,"lng":106.70137,"stationType":1},{"stationId":293,"stationOrder":14,"stationDirection":1,"routeId":72,"stationName":"Thảo Cầm Viên","pathPoints":"106.70137003734962,10.786145961809838 106.70137024,10.78614616 106.70137024,10.78614616 106.70458968498524,10.789598293781392","stationAddress":"3, đường Nguyễn Thị Minh Khai, Quận 1","lat":10.789598,"lng":106.70459,"stationType":1},{"stationId":295,"stationOrder":15,"stationDirection":1,"routeId":72,"stationName":"Cầu Thị Nghè","pathPoints":"106.70458968498524,10.789598293781392 106.70458984,10.78959846 106.70458984,10.78959846 106.70452881,10.78964043 106.70552063,10.79070473 106.70559692,10.79066944","stationAddress":"1A, đường Nguyễn Thị Minh Khai, Quận 1","lat":10.790669,"lng":106.705597,"stationType":1},{"stationId":298,"stationOrder":16,"stationDirection":1,"routeId":72,"stationName":"Nhà Thờ Thị Nghè","pathPoints":"106.70559692,10.79066944 106.70559692,10.79066944 106.70559692,10.79066944 106.70559692,10.79066944 106.70552826,10.79071999 106.70809174,10.79346085 106.70813751,10.79344463 106.70815277,10.79341793","stationAddress":"22 B, đường Xô Viết Nghệ Tĩnh, Quận Bình Thạnh","lat":10.793418,"lng":106.708156,"stationType":1},{"stationId":297,"stationOrder":17,"stationDirection":1,"routeId":72,"stationName":"Trung tâm Dưỡng Lão","pathPoints":"106.70815277,10.79341793 106.70815277,10.79341793 106.70815277,10.79341793 106.70815277,10.79341793 106.70815277,10.79341793 106.70807648,10.79344463 106.71000671,10.7954731 106.71048737,10.79655933 106.71057001167983,10.79653303671054","stationAddress":"138, đường Xô Viết Nghệ Tĩnh, Quận Bình Thạnh","lat":10.796533,"lng":106.71057,"stationType":1},{"stationId":300,"stationOrder":18,"stationDirection":1,"routeId":72,"stationName":"Trường trung học Gia Định","pathPoints":"106.71057001167983,10.79653303671054 106.71057129,10.79653263 106.71057129,10.79653263 106.71057129,10.79653263 106.71057129,10.79653263 106.71057129,10.79653263 106.71048737,10.79658031 106.71073914,10.79716492 106.71091461,10.7977972 106.71105957,10.79839802 106.71113586,10.79899883 106.71120453,10.79899883 106.71120453,10.79899883 106.71120453,10.79899883 106.7112029952955,10.798998917232371","stationAddress":"246, đường Xô Viết Nghệ Tĩnh, Quận Bình Thạnh","lat":10.798999,"lng":106.711203,"stationType":1},{"stationId":476,"stationOrder":19,"stationDirection":1,"routeId":72,"stationName":"Đại học Hutech","pathPoints":"106.7112029952955,10.798998917232371 106.71112061,10.7990036 106.71128845,10.80064297 106.71143341,10.80091667 106.71165466,10.80112267 106.71192169,10.80129623 106.71278381,10.80125904 106.71426392,10.80092239 106.71425629,10.80082703","stationAddress":"510-512, đường Điện Biên Phủ, Quận Bình Thạnh","lat":10.800827,"lng":106.714255,"stationType":1},{"stationId":473,"stationOrder":20,"stationDirection":1,"routeId":72,"stationName":"Khu Du lịch Văn Thánh","pathPoints":"106.71425629,10.80082703 106.71425629,10.80082703 106.71425629,10.80082703 106.71427917,10.80091667 106.71557617,10.80048466 106.71599579,10.8004694 106.71655273,10.80020523 106.71675873,10.79995823 106.71742249,10.79961491 106.71740723,10.79953098","stationAddress":"600, đường Điện Biên Phủ, Quận Bình Thạnh","lat":10.799531,"lng":106.717404,"stationType":1},{"stationId":475,"stationOrder":21,"stationDirection":1,"routeId":72,"stationName":"Cầu Sài Gòn","pathPoints":"106.71740723,10.79953098 106.71740723,10.79953098 106.71740723,10.79953098 106.71746063,10.79959965 106.71907806,10.79865646 106.71928406,10.79865646 106.71949639966039,10.79852564874962","stationAddress":"658, đường Điện Biên Phủ, Quận Bình Thạnh","lat":10.798525,"lng":106.719496,"stationType":1},{"stationId":477,"stationOrder":22,"stationDirection":1,"routeId":72,"stationName":"Cầu Đen","pathPoints":"106.71949639966039,10.79852564874962 106.71949768,10.79852486 106.71949768,10.79852486 106.72050476,10.79802418 106.72158051,10.79780293 106.72290802,10.79781342 106.72425079,10.79807663 106.73419952,10.79997826 106.73419952,10.79997826 106.73419993839407,10.799978336580631","stationAddress":"794, đường Xa Lộ Hà Nội, Quận 2","lat":10.799978,"lng":106.7342,"stationType":1},{"stationId":478,"stationOrder":23,"stationDirection":1,"routeId":72,"stationName":"Thảo Điền","pathPoints":"106.73419993839407,10.799978336580631 106.73889892421792,10.800838414031269","stationAddress":"Đối diện ngã 3 Thảo Điền, đường Xa Lộ Hà Nội, Quận 2","lat":10.800838,"lng":106.738899,"stationType":1},{"stationId":480,"stationOrder":24,"stationDirection":1,"routeId":72,"stationName":"Metro Quận 2","pathPoints":"106.73889892421792,10.800838414031269 106.73889923,10.80083847 106.73889923,10.80083847 106.74292755,10.80158424 106.74292755,10.80158424 106.74292792480189,10.80158432635987","stationAddress":"170, đường Xa Lộ Hà Nội, Quận 2","lat":10.801584,"lng":106.742928,"stationType":1},{"stationId":479,"stationOrder":25,"stationDirection":1,"routeId":72,"stationName":"Cát Lái","pathPoints":"106.74292792480189,10.80158432635987 106.74458313,10.80196571 106.74551392,10.80193424 106.74595642,10.80195522 106.74633026,10.80201817 106.74714661,10.80220795 106.74761963,10.80247116 106.7480891573031,10.802591385671116","stationAddress":"Khu dân cư Estella, đường Xa Lộ Hà Nội, Quận 2","lat":10.802592,"lng":106.748089,"stationType":1},{"stationId":482,"stationOrder":26,"stationDirection":1,"routeId":72,"stationName":"Xi măng hà tiên - trạm thu phí","pathPoints":"106.7480891573031,10.802591385671116 106.74809265,10.80259228 106.74809265,10.80259228 106.75114441,10.80375671 106.75232697,10.80453682 106.75341797,10.80537987 106.75453949,10.80656052 106.75546265,10.80784607 106.75601959,10.8088789 106.75642395,10.80995369 106.75839233,10.81920624","stationAddress":"249B, đường Xa Lộ Hà Nội, Quận 9","lat":10.819206,"lng":106.758394,"stationType":1},{"stationId":481,"stationOrder":27,"stationDirection":1,"routeId":72,"stationName":"Ngã 4 Tây Hòa (RMK)","pathPoints":"106.75839233,10.81920624 106.75839233,10.81920624 106.75839233,10.81920624 106.75850677,10.82070255 106.75889587,10.82234669 106.75972748,10.82437038 106.76077271,10.8259716 106.76077271,10.8259716 106.7607734762043,10.825972898880712","stationAddress":"185A, đường Xa Lộ Hà Nội, Quận 9","lat":10.825972,"lng":106.760775,"stationType":1},{"stationId":485,"stationOrder":28,"stationDirection":1,"routeId":72,"stationName":"Trạm xây dựng","pathPoints":"106.7607734762043,10.825972898880712 106.76312185538052,10.829953905518785","stationAddress":"354A, đường Xa Lộ Hà Nội, Quận 9","lat":10.829955,"lng":106.76312,"stationType":1},{"stationId":483,"stationOrder":29,"stationDirection":1,"routeId":72,"stationName":"Khu QLGTDT số 2","pathPoints":"106.76312185538052,10.829953905518785 106.76312256,10.8299551 106.76312256,10.8299551 106.7647780756542,10.833248961975727","stationAddress":"Khu QLGTĐT số 2, đường Xa Lộ Hà Nội, Quận 9","lat":10.833249,"lng":106.764778,"stationType":1},{"stationId":1025,"stationOrder":30,"stationDirection":1,"routeId":72,"stationName":"Ngã 4 Bình Thái","pathPoints":"106.7647780756542,10.833248961975727 106.76477814,10.83324909 106.76477814,10.83324909 106.7666620106208,10.836160699087221","stationAddress":"Kho 71, đường Xa Lộ Hà Nội, Quận 9","lat":10.836162,"lng":106.76666,"stationType":1},{"stationId":1030,"stationOrder":31,"stationDirection":1,"routeId":72,"stationName":"UBND quận 9","pathPoints":"106.7666620106208,10.836160699087221 106.7666626,10.83616161 106.7666626,10.83616161 106.7666626,10.83616161 106.76672363,10.83649921 106.76885986,10.84041882 106.76907349,10.84046555 106.76907349,10.84046555 106.76907349,10.84046555 106.76907349,10.84046555 106.76907345564186,10.840465953666909","stationAddress":"1B, đường Xa Lộ Hà Nội, Quận 9","lat":10.840466,"lng":106.769074,"stationType":1},{"stationId":1026,"stationOrder":32,"stationDirection":1,"routeId":72,"stationName":"Bê tông Hải Âu","pathPoints":"106.76907345564186,10.840465953666909 106.7690506,10.84073448 106.77065277,10.84377003 106.7707901,10.84383392 106.7707901,10.84383392 106.7707901,10.84383392 106.7707901,10.84383392 106.77079001565271,10.843833905960542","stationAddress":"Bê tông Hải Âu, đường Xa Lộ Hà Nội, Quận 9","lat":10.843834,"lng":106.77079,"stationType":1},{"stationId":1028,"stationOrder":33,"stationDirection":1,"routeId":72,"stationName":"Ngã 4 Thủ Đức","pathPoints":"106.77079001565271,10.843833905960542 106.77076721,10.84383011 106.77150726,10.84517956 106.77175903,10.84545994 106.77225494,10.84623051 106.772789,10.84721565 106.77297211,10.84714222","stationAddress":"716-720, đường Xa Lộ Hà Nội, Quận 9","lat":10.847142,"lng":106.772974,"stationType":1},{"stationId":494,"stationOrder":34,"stationDirection":1,"routeId":72,"stationName":"Công an Quận 9","pathPoints":"106.77297211,10.84714222 106.77297211,10.84714222 106.77297211,10.84714222 106.77297211,10.84714222 106.77297211,10.84714222 106.77284241,10.84724712 106.77327728,10.84803677 106.77385712,10.84870148 106.77442932,10.84936523 106.77506256,10.84996605 106.77506256,10.84996605 106.77506256,10.84996605 106.77506479862565,10.849967665137934","stationAddress":"Công an Quận 9, đường Xa Lộ Hà Nội, Quận 9","lat":10.849966,"lng":106.775066,"stationType":1},{"stationId":498,"stationOrder":35,"stationDirection":1,"routeId":72,"stationName":"Chợ chiều","pathPoints":"106.77506479862565,10.849967665137934 106.77549744,10.85027981 106.77637482,10.85109329 106.77752686,10.85184669 106.77851105,10.85239029 106.78000641,10.85330963 106.78044128,10.85358047 106.7804718,10.85351086 106.7804718,10.85351086 106.78047349659015,10.853511856811844","stationAddress":"Kế 830 (Chợ Chiều), đường Xa Lộ Hà Nội, Quận 9","lat":10.853511,"lng":106.780474,"stationType":1},{"stationId":7159,"stationOrder":36,"stationDirection":1,"routeId":72,"stationName":"Trạm Hutech - Khu Công nghệ cao","pathPoints":"106.78047349659015,10.853511856811844 106.78538296481426,10.85639635787026","stationAddress":"Trước Trung tâm Đào tạo NL CLC Hutech, đường Song hành phải Xa Lộ Hà Nội, Quận 9","lat":10.856398,"lng":106.785382,"stationType":1},{"stationId":495,"stationOrder":37,"stationDirection":1,"routeId":72,"stationName":"Khu Công nghệ cao quận 9","pathPoints":"106.78538296481426,10.85639635787026 106.78538513,10.85639763 106.78538513,10.85639763 106.78886975753757,10.858509750196015","stationAddress":"Khu công nghệ cao, đường Xa Lộ Hà Nội, Quận 9","lat":10.858511,"lng":106.788869,"stationType":1},{"stationId":48573,"stationOrder":38,"stationDirection":1,"routeId":72,"stationName":"Khu Công nghệ Phần mềm ĐHQG - TP.HCM","pathPoints":"106.78886975753757,10.858509750196015 106.78887177,10.85851097 106.78887177,10.85851097 106.78887177,10.85851097 106.78887177,10.85851097 106.78887177,10.85851097 106.78887177,10.85851097 106.79268646,10.86091328 106.79452515,10.86197758 106.7963562,10.86304188 106.79730225,10.86287308 106.79738617,10.86198807 106.79695892,10.86158752 106.7966156,10.86162949 106.79611969,10.86177731 106.79532623,10.86306286 106.79489899,10.86392689 106.79421234,10.8646431 106.7936554,10.8654232 106.79294586,10.86597061 106.79271698,10.86619759 106.79277802,10.86642361 106.79292297,10.86658764 106.79322815,10.86653996 106.7937851,10.86659241 106.79445648,10.86663437 106.79469299,10.86667633 106.79499643594154,10.867535264904532","stationAddress":"Đối diện khu công nghệ phần mềm, Võ Trường Toản, Phường Linh Trung, Thủ Đức, Thành phố Hồ Chí Minh","lat":10.867528,"lng":106.795017,"stationType":1}]}