{"id":82,"routeId":88,"regionId":1,"routeNo":"61-6","routeName":"Bến Xe Buýt Sài Gòn - Khu Du lịch Đại Nam","totalScore":68,"ratingCount":29,"rating1Count":13,"rating2Count":3,"rating3Count":6,"rating4Count":4,"rating5Count":3,"lastUpdated":{},"timeTableIn":"24600,28800,36000,40800,46800,56400,60000,63000","timeTableOut":"18900,21600,27000,33000,37800,48600,52200,55800","type":"Phổ thông - Không trợ giá","distance":37980,"tickets":null,"headway":"45 - 70","operationTime":"05:15 - 15:30","outBoundDescription":"Công viên 23/9 (Ga hành khách xe buýt Sài Gòn) – Phạm Ngũ Lão – Nguyễn Thái Học – Trần Hưng Đạo - Hàm Nghi - Hồ Tùng Mậu - Tôn Đức Thắng - Đinh Tiên Hoàng - Nguyễn Thị Minh Khai - Xô Viết Nghệ Tĩnh - Quốc lộ 13 - Đại lộ Bình Dương - ĐT 43 - Lê Thị Trung - Huỳnh Văn Lũy - Đại lộ Bình Dương - Khu du lịch Đại Nam","inBoundDescription":"Khu du lịch Đại Nam - Đại lộ Bình Dương - Huỳnh Văn Luỹ - Lê Thị Trung - ĐT 43 - Đại lộ Bình Dương - Quốc lộ 13 - Đinh Bộ Lĩnh - Bạch Đằng - Xô Viết Nghệ Tĩnh - Nguyễn Thị Minh Khai - Đinh Tiên Hoàng - Tôn Đức Thắng - Hàm Nghi – Công trường Quách Thị Trang – Lê Lai - Công viên 23/9 (Ga hành khách xe buýt Sài Gòn).","normalTicket":10000,"studentTicket":"","monthlyTicket":"","orgs":"Công ty Cổ phần Xe khách Sài Gòn, ĐT: (028)39505505","timeOfTrip":"120","totalTrip":"16 [TPD]","routeNoI18n":null,"routeNameI18n":null,"routeType":1,"privateRoute":false,"disabled":true,"isDeleted":false,"customRoute":null,"temporaryClosed":true,"underConstruction":false,"forwardRouteId":1,"backwardRouteId":2,"forwardBiasDistance":null,"backwardBiasDistance":null,"createdAt":{},"updatedAt":{},"stations":[{"stationId":35,"stationOrder":0,"stationDirection":1,"routeId":88,"stationName":"Bến xe buýt Sài Gòn","pathPoints":"","stationAddress":"BẾN XE BUÝT SÀI GÒN, đường Lê Lai, Quận 1","lat":10.767676,"lng":106.689362,"stationType":1},{"stationId":1451,"stationOrder":1,"stationDirection":1,"routeId":88,"stationName":"Trần Hưng Đạo","pathPoints":"106.68936157,10.76767635 106.68957520,10.76723862 106.69458771,10.76922989 106.69501495,10.76854038 106.69498444,10.76846123","stationAddress":"197, đường Nguyễn Thái Học, Quận 1","lat":10.768461,"lng":106.694984,"stationType":1},{"stationId":27,"stationOrder":2,"stationDirection":1,"routeId":88,"stationName":"Nguyễn Kim","pathPoints":"106.69498444,10.76846123 106.69498444,10.76846123 106.69507599,10.76845074 106.69541931,10.76792908 106.69575500,10.76831913 106.69584656,10.76832676 106.69584656,10.76832676","stationAddress":"71C, đường Trần Hưng Đạo, Quận 1","lat":10.768327,"lng":106.695847,"stationType":1},{"stationId":7265,"stationOrder":3,"stationDirection":1,"routeId":88,"stationName":"Trạm Trung chuyển trên đường Hàm Nghi","pathPoints":"106.69584656,10.76832676 106.69584656,10.76832676 106.69760132,10.77046394 106.69918823,10.77098560 106.70025635,10.77091122","stationAddress":"Hàm nghi 5, đường Hàm Nghi, Quận 1","lat":10.770911,"lng":106.700259,"stationType":1},{"stationId":1256,"stationOrder":4,"stationDirection":1,"routeId":88,"stationName":"Chợ Cũ","pathPoints":"106.70025635,10.77091122 106.70199585,10.77081108","stationAddress":"89A, đường Hàm Nghi, Quận 1","lat":10.770811,"lng":106.701998,"stationType":1},{"stationId":32,"stationOrder":5,"stationDirection":1,"routeId":88,"stationName":"Hồ Tùng Mậu","pathPoints":"106.70199585,10.77081108 106.70407104,10.77072239","stationAddress":"67, đường Hàm Nghi, Quận 1","lat":10.770722,"lng":106.704074,"stationType":1},{"stationId":31,"stationOrder":6,"stationDirection":1,"routeId":88,"stationName":"Bến Bạch Đằng","pathPoints":"106.70404816,10.77072716 106.70450592,10.77070618 106.70497894,10.76976299 106.70516205,10.76939011 106.70593262,10.76953983 106.70606995,10.76959991 106.70616150,10.76972961 106.70639038,10.77054977 106.70635986,10.77071953 106.70633698,10.77099037 106.70639038,10.77120972 106.70636749,10.77126026 106.70639038,10.77161789 106.70652008,10.77293015 106.70663452,10.77407837","stationAddress":"Bến thủy nội địa Thủ Thiêm, đường Tôn Đức Thắng, Quận 1","lat":10.774094,"lng":106.706654,"stationType":1},{"stationId":1092,"stationOrder":7,"stationDirection":1,"routeId":88,"stationName":"Bảo tàng Tôn Đức Thắng","pathPoints":"106.70652008,10.77388954 106.70658112,10.77460003 106.70667267,10.77488041 106.70671844,10.77563953 106.70674896,10.77591038 106.70671844,10.77598000 106.70687866,10.77655983 106.70702362,10.77717018","stationAddress":"Đối diện số 5, đường Tôn Đức Thắng, Quận 1","lat":10.777367,"lng":106.707115,"stationType":1},{"stationId":1093,"stationOrder":8,"stationDirection":1,"routeId":88,"stationName":"Ngô Văn Năm","pathPoints":"106.70711517,10.77736664 106.70726013,10.77820969 106.70755005,10.77939034 106.70771790,10.77991962 106.70781708,10.77994919","stationAddress":"Đối diện số 3C, đường Tôn Đức Thắng, Quận 1","lat":10.779949,"lng":106.707818,"stationType":1},{"stationId":1094,"stationOrder":9,"stationDirection":1,"routeId":88,"stationName":"Ba Son","pathPoints":"106.70781708,10.77994919 106.70781708,10.77994919 106.70787811,10.78044987 106.70793152,10.78075027 106.70787811,10.78088760 106.70692444,10.78180408 106.70692444,10.78180408","stationAddress":"2, đường Tôn Đức Thắng, Quận 1","lat":10.781804,"lng":106.706922,"stationType":1},{"stationId":1095,"stationOrder":10,"stationDirection":1,"routeId":88,"stationName":"TTTM Sài Gòn","pathPoints":"106.70681000,10.78180981 106.70614624,10.78244972 106.70603180,10.78250027 106.70555878,10.78291035 106.70491028,10.78351021 106.70423889,10.78411961","stationAddress":"6, đường Tôn Đức Thắng, Quận 1","lat":10.784286,"lng":106.704363,"stationType":1},{"stationId":1096,"stationOrder":11,"stationDirection":1,"routeId":88,"stationName":"Đại học Khoa học xã hội nhân văn","pathPoints":"106.70429993,10.78418446 106.70420837,10.78421211 106.70264435,10.78568840 106.70265961,10.78577805","stationAddress":"10, đường Đinh Tiên Hoàng, Quận 1","lat":10.785778,"lng":106.702663,"stationType":1},{"stationId":293,"stationOrder":12,"stationDirection":1,"routeId":88,"stationName":"Thảo Cầm Viên","pathPoints":"106.70265961,10.78577805 106.70265961,10.78577805 106.70261383,10.78573513 106.70169830,10.78656769 106.70453644,10.78965569 106.70458984,10.78959846 106.70458984,10.78959846","stationAddress":"3, đường Nguyễn Thị Minh Khai, Quận 1","lat":10.789598,"lng":106.70459,"stationType":1},{"stationId":295,"stationOrder":13,"stationDirection":1,"routeId":88,"stationName":"Cầu Thị Nghè","pathPoints":"106.70458984,10.78959846 106.70452881,10.78964043 106.70552063,10.79070473 106.70559692,10.79066944","stationAddress":"1A, đường Nguyễn Thị Minh Khai, Quận 1","lat":10.790669,"lng":106.705597,"stationType":1},{"stationId":298,"stationOrder":14,"stationDirection":1,"routeId":88,"stationName":"Nhà Thờ Thị Nghè","pathPoints":"106.70559692,10.79066944 106.70559692,10.79066944 106.70552826,10.79071999 106.70809174,10.79346085 106.70813751,10.79344463 106.70815277,10.79341793","stationAddress":"22 B, đường Xô Viết Nghệ Tĩnh, Quận Bình Thạnh","lat":10.793418,"lng":106.708156,"stationType":1},{"stationId":297,"stationOrder":15,"stationDirection":1,"routeId":88,"stationName":"Trung tâm Dưỡng Lão","pathPoints":"106.70815277,10.79341793 106.70815277,10.79341793 106.70815277,10.79341793 106.70807648,10.79344463 106.71000671,10.79547310 106.71048737,10.79655933 106.71057129,10.79653263 106.71057129,10.79653263 106.71057129,10.79653263","stationAddress":"138, đường Xô Viết Nghệ Tĩnh, Quận Bình Thạnh","lat":10.796533,"lng":106.71057,"stationType":1},{"stationId":300,"stationOrder":16,"stationDirection":1,"routeId":88,"stationName":"Trường trung học Gia Định","pathPoints":"106.71057129,10.79653263 106.71057129,10.79653263 106.71048737,10.79658031 106.71073914,10.79716492 106.71091461,10.79779720 106.71105957,10.79839802 106.71113586,10.79899883 106.71120453,10.79899883 106.71120453,10.79899883","stationAddress":"246, đường Xô Viết Nghệ Tĩnh, Quận Bình Thạnh","lat":10.798999,"lng":106.711203,"stationType":1},{"stationId":299,"stationOrder":17,"stationDirection":1,"routeId":88,"stationName":"Ngã Ba Hàng Xanh","pathPoints":"106.71120453,10.79899883 106.71124268,10.79976845 106.71129608,10.80050087 106.71139526,10.80120182 106.71154022,10.80130196 106.71157837,10.80147552 106.71154785,10.80161285 106.71144104,10.80171776 106.71143341,10.80284500 106.71150970,10.80326176","stationAddress":"334-336, đường Xô Viết Nghệ Tĩnh, Quận Bình Thạnh","lat":10.803262,"lng":106.711509,"stationType":1},{"stationId":302,"stationOrder":18,"stationDirection":1,"routeId":88,"stationName":"Đài Liệt sĩ","pathPoints":"106.71150970,10.80326176 106.71150970,10.80326176 106.71160889,10.80783558 106.71174622,10.80833054 106.71196747,10.80883121 106.71196747,10.80883121 106.71196747,10.80883121","stationAddress":"504, đường Xô Viết Nghệ Tĩnh, Quận Bình Thạnh","lat":10.808831,"lng":106.711965,"stationType":1},{"stationId":301,"stationOrder":19,"stationDirection":1,"routeId":88,"stationName":"Siêu thị Coop Mart","pathPoints":"106.71196747,10.80883121 106.71225739,10.80976963 106.71240997,10.81079102","stationAddress":"222/13A (52), đường Quốc lộ 13, Quận Bình Thạnh","lat":10.810791,"lng":106.71241,"stationType":1},{"stationId":303,"stationOrder":20,"stationDirection":1,"routeId":88,"stationName":"Cổng ra - Bến xe Miền Đông 2","pathPoints":"106.71240997,10.81079102 106.71240997,10.81079102 106.71237946,10.81083870 106.71256256,10.81228828 106.71260834,10.81231976 106.71260834,10.81231976","stationAddress":"126-128, đường Quốc lộ 13, Quận Bình Thạnh","lat":10.81232,"lng":106.712608,"stationType":1},{"stationId":305,"stationOrder":21,"stationDirection":1,"routeId":88,"stationName":"Cổng ra - Bến xe Miền Đông 1","pathPoints":"106.71260834,10.81231976 106.71260834,10.81231976 106.71260834,10.81231976 106.71269226,10.81306744 106.71279144,10.81385326 106.71279144,10.81385326 106.71279144,10.81385326","stationAddress":"152, đường Quốc lộ 13, Quận Bình Thạnh","lat":10.813853,"lng":106.712791,"stationType":1},{"stationId":304,"stationOrder":22,"stationDirection":1,"routeId":88,"stationName":"Trường TH Bình Triệu","pathPoints":"106.71279144,10.81385326 106.71293640,10.81564045 106.71305084,10.81651974 106.71320343,10.81752968 106.71324158,10.81793976 106.71360016,10.82091999 106.71389771,10.82341957 106.71399689,10.82431984 106.71410370,10.82481956 106.71417236,10.82497978 106.71441650,10.82561016 106.71452332,10.82575035 106.71454620,10.82586002 106.71454620,10.82596016 106.71446991,10.82612991 106.71440887,10.82618046 106.71440125,10.82682037 106.71437836,10.82715034 106.71437836,10.82752991 106.71427155,10.82923985 106.71434021,10.82924747","stationAddress":"136, đường Quốc lộ 13, Quận Thủ Đức","lat":10.829247,"lng":106.71434,"stationType":1},{"stationId":309,"stationOrder":23,"stationDirection":1,"routeId":88,"stationName":"Trạm xăng dầu","pathPoints":"106.71434021,10.82924747 106.71414948,10.83265495","stationAddress":"206 Sacombank (64/1), đường Quốc lộ 13, Quận Thủ Đức","lat":10.832655,"lng":106.714149,"stationType":1},{"stationId":306,"stationOrder":24,"stationDirection":1,"routeId":88,"stationName":"Cầu Ông Dầu","pathPoints":"106.71414948,10.83265495 106.71401215,10.83613491","stationAddress":"416, đường Quốc lộ 13, Quận Thủ Đức","lat":10.836135,"lng":106.714012,"stationType":1},{"stationId":310,"stationOrder":25,"stationDirection":1,"routeId":88,"stationName":"Đường số 3","pathPoints":"106.71391296,10.83619022 106.71391296,10.83650970 106.71394348,10.83681011 106.71401215,10.83708000 106.71412659,10.83742046 106.71427917,10.83771038 106.71449280,10.83800030 106.71515656,10.83878040 106.71524048,10.83887959","stationAddress":"486, đường Quốc lộ 13, Quận Thủ Đức","lat":10.838815,"lng":106.715317,"stationType":1},{"stationId":312,"stationOrder":26,"stationDirection":1,"routeId":88,"stationName":"Đường số 4","pathPoints":"106.71531677,10.83881474 106.71714020,10.84107208","stationAddress":"510, đường Quốc lộ 13, Quận Thủ Đức","lat":10.841072,"lng":106.71714,"stationType":1},{"stationId":307,"stationOrder":27,"stationDirection":1,"routeId":88,"stationName":"Cân Nhơn Hòa","pathPoints":"106.71708679,10.84111023 106.71772003,10.84187984 106.71788025,10.84210014 106.71803284,10.84237957 106.71814728,10.84270954 106.71823120,10.84305954 106.71826172,10.84362984 106.71824646,10.84469032","stationAddress":"516 - Cân Nhơn Hòa, đường Quốc lộ 13, Quận Thủ Đức","lat":10.844687,"lng":106.718307,"stationType":1},{"stationId":308,"stationOrder":28,"stationDirection":1,"routeId":88,"stationName":"Ngã 3 Hiệp Bình","pathPoints":"106.71824646,10.84469032 106.71823120,10.84589958 106.71822357,10.84700966 106.71823120,10.84759998 106.71832275,10.84811974 106.71843719,10.84848976 106.71864319,10.84897995","stationAddress":"574 (1/42A), đường Quốc lộ 13, Quận Thủ Đức","lat":10.848944,"lng":106.718704,"stationType":1},{"stationId":314,"stationOrder":29,"stationDirection":1,"routeId":88,"stationName":"Ngã 3 Đường Hiệp Bình","pathPoints":"106.71864319,10.84897995 106.71903992,10.84974957 106.71926880,10.85019016 106.71974945,10.85093975 106.72103119,10.85272980 106.72116089,10.85295010","stationAddress":"628 (620), đường Quốc lộ 13, Quận Thủ Đức","lat":10.852921,"lng":106.721222,"stationType":1},{"stationId":316,"stationOrder":30,"stationDirection":1,"routeId":88,"stationName":"Trạm y tế Hiệp Bình Phước","pathPoints":"106.72116089,10.85295010 106.72158813,10.85377026 106.72202301,10.85478020 106.72242737,10.85581017","stationAddress":"5/12 (702), đường Quốc lộ 13, Quận Thủ Đức","lat":10.855787,"lng":106.722504,"stationType":1},{"stationId":311,"stationOrder":31,"stationDirection":1,"routeId":88,"stationName":"UBND P.Hiệp Bình Phước","pathPoints":"106.72242737,10.85581017 106.72274017,10.85661030 106.72328949,10.85807037 106.72358704,10.85883045","stationAddress":"750/3 , đường Quốc lộ 13, Quận Thủ Đức","lat":10.858809,"lng":106.723663,"stationType":1},{"stationId":313,"stationOrder":32,"stationDirection":1,"routeId":88,"stationName":"Hồ Bơi","pathPoints":"106.72366333,10.85880947 106.72366333,10.85880947 106.72361755,10.85888004 106.72411346,10.86013889 106.72452545,10.86119270 106.72456360,10.86117172 106.72456360,10.86117172","stationAddress":"784, đường Quốc lộ 13, Quận Thủ Đức","lat":10.861172,"lng":106.724564,"stationType":1},{"stationId":3403,"stationOrder":33,"stationDirection":1,"routeId":88,"stationName":"Xây dựng Ngọc Đào","pathPoints":"106.72456360,10.86117172 106.72502899,10.86268330 106.72496796,10.86330509 106.72477722,10.86387444 106.72434235,10.86465359 106.72428894,10.86527538 106.72417450,10.86566544 106.72370911,10.86590767 106.72317505,10.86667919","stationAddress":"858, đường Quốc lộ 13, Quận Thủ Đức","lat":10.866679,"lng":106.723175,"stationType":1},{"stationId":3405,"stationOrder":34,"stationDirection":1,"routeId":88,"stationName":"Cầu Vĩnh Bình","pathPoints":"106.72312164,10.86664009 106.72286224,10.86697960 106.72264099,10.86719990 106.72225189,10.86750031 106.72155762,10.86781979 106.72135925,10.86789036 106.72109222,10.86795044 106.72090149,10.86798954 106.72036743,10.86800957 106.71900940,10.86800003 106.71843719,10.86798000 106.71795654,10.86800957","stationAddress":"922, đường Quốc lộ 13, Quận Thủ Đức","lat":10.868033,"lng":106.717964,"stationType":1},{"stationId":7214,"stationOrder":35,"stationDirection":1,"routeId":88,"stationName":"Bến xe Đại Nam","pathPoints":"106.71796417,10.86803341 106.71728516,10.86807823 106.71295166,10.86976433 106.71245575,10.86993217 106.70902252,10.87043858 106.70563507,10.87111282 106.70460510,10.87147045 106.70370483,10.87229252 106.70123291,10.87530613 106.70027161,10.87680244 106.69969177,10.87838268 106.69834137,10.88211250 106.69837952,10.88333416 106.69869995,10.88438797 106.69985962,10.88672733 106.70101929,10.88839149 106.70355225,10.89089870 106.70591736,10.89363861 106.71041870,10.89899063 106.71176910,10.90113926 106.71260834,10.90299416 106.71292877,10.90701771 106.71337891,10.91473007 106.71368408,10.92128181 106.71305847,10.92416859 106.71112823,10.93139553 106.70833588,10.94302464 106.70687866,10.94932365 106.70580292,10.95151520 106.70475769,10.95277882 106.70146942,10.95606518 106.69837952,10.95903587 106.69732666,10.95981503 106.69557190,10.96080494 106.68979645,10.96341705 106.68093872,10.96767235 106.67570496,10.97064304 106.67329407,10.97178078 106.67201233,10.97243309 106.67112732,10.97314930 106.66887665,10.97751045 106.66709900,10.98142815 106.66641235,10.98393536 106.66705322,10.98363972 106.66825867,10.98271275 106.66943359,10.98199654 106.67066193,10.98174381 106.67346954,10.98216534 106.67458344,10.98241806 106.67314911,10.99000168 106.67102051,10.98869514 106.67003632,10.98745251 106.66932678,10.98688412 106.66855621,10.98661041 106.66567993,10.98635769 106.66379547,10.98993874 106.66312408,10.99122334 106.66216278,10.99200249 106.66076660,10.99238205 106.65664673,10.99280262 106.65424347,10.99404621 106.64872742,10.99750042 106.64797974,10.99821663 106.64735413,10.99897480 106.64690399,11.00044918 106.64634705,11.00325012 106.64572144,11.00541973 106.64537811,11.00666237 106.64537811,11.00756836 106.64570618,11.00832653 106.64649963,11.00942230 106.64755249,11.01386642 106.64859772,11.01925850 106.64948273,11.02363873 106.64926147,11.02477646 106.64859772,11.02561855 106.64568329,11.02728271 106.64456940,11.02833557 106.64360046,11.02966213 106.64106750,11.03263187 106.64055634,11.03343296 106.63894653,11.03678131 106.63512421,11.04352093 106.63256836,11.04203129","stationAddress":"Bến xe Đại Nam, đường Đại lộ Bình Dương, Ngoại thành","lat":11.042031,"lng":106.632571,"stationType":1}]}